[
    {
        "slug": "barcelone_2018",
        "title": "Barcelone \u2013 2018",
        "description": "blablabla",
        "thumbnail": "data\/barcelone_2018\/travelr\/thumb_0001.jpg",
        "latitude": 41.3947688,
        "longitude": 2.0787284
    },
    {
        "slug": "bergen_2018",
        "title": "Bergen \u2013 2018",
        "description": "",
        "thumbnail": "data\/bergen_2018\/travelr\/thumb_P5160447.JPG",
        "latitude": 60.3943034,
        "longitude": 5.3258117
    },
    {
        "slug": "berlin_2018",
        "title": "Berlin \u2013 2018",
        "description": "",
        "thumbnail": "data\/berlin_2018\/travelr\/thumb_IMG_20180622_174434.jpg",
        "latitude": 52.5170365,
        "longitude": 13.3888599
    },
    {
        "slug": "bratislava_2018",
        "title": "Bratislava \u2013 2018",
        "description": "",
        "thumbnail": "data\/bratislava_2018\/travelr\/thumb_P7010080.JPG",
        "latitude": 48.1359085,
        "longitude": 17.1597440625
    },
    {
        "slug": "budapest_2018",
        "title": "Budapest \u2013 2018",
        "description": "",
        "thumbnail": "data\/budapest_2018\/travelr\/thumb_P7030007.JPG",
        "latitude": 47.4983815,
        "longitude": 19.0404707
    },
    {
        "slug": "chisinau_2018",
        "title": "Chi\u0219in\u0103u \u2013 2018",
        "description": "",
        "thumbnail": "data\/chisinau_2018\/travelr\/thumb_P7260012.JPG",
        "latitude": 47.0122737,
        "longitude": 28.8605936
    },
    {
        "slug": "danemark_2015",
        "title": "Danemark \u2013 2015",
        "description": "",
        "thumbnail": "data\/danemark_2015\/travelr\/thumb_0014.jpg",
        "latitude": 56.2098058,
        "longitude": 9.3006526
    },
    {
        "slug": "goteborg_2018",
        "title": "G\u00f6teborg \u2013 2018",
        "description": "",
        "thumbnail": "data\/goteborg_2018\/travelr\/thumb_P5230081.JPG",
        "latitude": 57.7072326,
        "longitude": 11.9670171
    },
    {
        "slug": "irlande_05-2018",
        "title": "Irlande \u2013 2018",
        "description": "",
        "thumbnail": "data\/irlande_05-2018\/travelr\/thumb_P5120107.JPG",
        "latitude": 53.0837285,
        "longitude": -9.58919368266271
    },
    {
        "slug": "irlande_06-2016",
        "title": "Irlande \u2013 06\/2016",
        "description": "",
        "thumbnail": "data\/irlande_06-2016\/travelr\/thumb_0032.jpg",
        "latitude": 53.3623919,
        "longitude": -10.4597692
    },
    {
        "slug": "irlande_12-2016",
        "title": "Irlande \u2013 12\/2016",
        "description": "",
        "thumbnail": "data\/irlande_12-2016\/travelr\/thumb_0032.jpg",
        "latitude": 53.3623919,
        "longitude": -10.4597692
    },
    {
        "slug": "kiev_2018",
        "title": "Kiev \u2013 2018",
        "description": "",
        "thumbnail": "data\/kiev_2018\/travelr\/thumb_P7190037.JPG",
        "latitude": 50.4501071,
        "longitude": 30.5240501
    },
    {
        "slug": "krakow_2018",
        "title": "Krak\u00f3w \u2013 2018",
        "description": "",
        "thumbnail": "data\/krakow_2018\/travelr\/thumb_P6190199.JPG",
        "latitude": 50.0619474,
        "longitude": 19.9368564
    },
    {
        "slug": "lviv_2018",
        "title": "Lviv \u2013 2018",
        "description": "",
        "thumbnail": "data\/lviv_2018\/travelr\/thumb_IMG_20180714_154906.jpg",
        "latitude": 49.841952,
        "longitude": 24.0315921
    },
    {
        "slug": "munich_2015",
        "title": "Munich \u2013 2015",
        "description": "",
        "thumbnail": "data\/munich_2015\/travelr\/thumb_0001.jpg",
        "latitude": 48.1548895,
        "longitude": 11.4717965
    },
    {
        "slug": "new_york_2014",
        "title": "New-York \u2013 2014",
        "description": "",
        "thumbnail": "data\/new_york_2014\/travelr\/thumb_0060.jpg",
        "latitude": 40.6974034,
        "longitude": -74.1197633
    },
    {
        "slug": "norvege_2017",
        "title": "Norv\u00e8ge \u2013 2017",
        "description": "",
        "thumbnail": "data\/norvege_2017\/travelr\/thumb_0002.jpg",
        "latitude": 63.4073136,
        "longitude": 10.4259407994113
    },
    {
        "slug": "odessa_2018",
        "title": "Odessa \u2013 2018",
        "description": "",
        "thumbnail": "data\/odessa_2018\/travelr\/thumb_P7230212.JPG",
        "latitude": 46.4846583,
        "longitude": 30.732564
    },
    {
        "slug": "oleron_2014",
        "title": "Ol\u00e9ron \u2013 2014",
        "description": "",
        "thumbnail": "data\/oleron_2014\/travelr\/thumb_0017.jpg",
        "latitude": 45.9236976,
        "longitude": -1.4404717
    },
    {
        "slug": "oslo_2018",
        "title": "Oslo \u2013 2018",
        "description": "",
        "thumbnail": "data\/oslo_2018\/travelr\/thumb_P5200016.JPG",
        "latitude": 59.9132694,
        "longitude": 10.7391112
    },
    {
        "slug": "prague_2018",
        "title": "Prague \u2013 2018",
        "description": "",
        "thumbnail": "data\/prague_2018\/travelr\/thumb_P6260013.JPG",
        "latitude": 50.0874654,
        "longitude": 14.4212535
    },
    {
        "slug": "riga_2018",
        "title": "Riga \u2013 2018",
        "description": "",
        "thumbnail": "data\/riga_2018\/travelr\/thumb_P6050038.JPG",
        "latitude": 56.9493977,
        "longitude": 24.1051846
    },
    {
        "slug": "stockholm_2018",
        "title": "Stockholm \u2013 2018",
        "description": "",
        "thumbnail": "data\/stockholm_2018\/travelr\/thumb_P5300019.JPG",
        "latitude": 59.3251172,
        "longitude": 18.0710935
    },
    {
        "slug": "tallinn_2018",
        "title": "Tallinn \u2013 2018",
        "description": "",
        "thumbnail": "data\/tallinn_2018\/travelr\/thumb_IMG_20180602_145645.jpg",
        "latitude": 59.4372155,
        "longitude": 24.7453688
    },
    {
        "slug": "tchernobyl_2018",
        "title": "Tchernobyl \u2013 2018",
        "description": "",
        "thumbnail": "data\/tchernobyl_2018\/travelr\/thumb_P7180050.JPG",
        "latitude": 51.2705259,
        "longitude": 30.2194322
    },
    {
        "slug": "valence_2018",
        "title": "Valence \u2013 2018",
        "description": "",
        "thumbnail": "data\/valence_2018\/travelr\/thumb_P3240014.jpg",
        "latitude": 39.4699014,
        "longitude": -0.3759513
    },
    {
        "slug": "vilnius_2018",
        "title": "Vilnius \u2013 2018",
        "description": "",
        "thumbnail": "data\/vilnius_2018\/travelr\/thumb_IMG_20180608_182502.jpg",
        "latitude": 54.6870458,
        "longitude": 25.2829111
    },
    {
        "slug": "warsaw_2018",
        "title": "Warsaw \u2013 2018",
        "description": "",
        "thumbnail": "data\/warsaw_2018\/travelr\/thumb_P6140088.JPG",
        "latitude": 52.2319237,
        "longitude": 21.0067265
    },
    {
        "slug": "zdiar_2018",
        "title": "\u017ddiar \u2013 2018",
        "description": "",
        "thumbnail": "data\/zdiar_2018\/travelr\/thumb_IMG_20180709_142507.jpg",
        "latitude": 49.2695199,
        "longitude": 20.2645742
    }
]